{
    "KABR": { "name": "Aberdeen", "state": "SD", "lat": 45.455, "lon": -98.413 },
    "KENX": { "name": "Albany", "state": "NY", "lat": 42.586, "lon": -74.064 },
    "KABX": { "name": "Albuquerque", "state": "NM", "lat": 35.149, "lon": -106.823 },
    "KAMA": { "name": "Amarillo", "state": "TX", "lat": 35.233, "lon": -101.709 },
    "PAHG": { "name": "Anchorage/Kenai", "state": "AK", "lat": 60.725, "lon": -151.351 },
    "PGUA": { "name": "Andersen AFB", "state": "GU", "lat": 13.579, "lon": 144.92 },
    "KFFC": { "name": "Atlanta", "state": "GA", "lat": 33.363, "lon": -84.565 },
    "KBBX": { "name": "Beale AFB", "state": "CA", "lat": 39.496, "lon": -121.631 },
    "PABC": { "name": "Bethel", "state": "AK", "lat": 60.793, "lon": -161.877 },
    "KBLX": { "name": "Billings", "state": "MT", "lat": 45.853, "lon": -108.606 },
    "KBGM": { "name": "Binghamton", "state": "NY", "lat": 42.199, "lon": -75.985 },
    "PACG": { "name": "Biorka Island/Sitka", "state": "AK", "lat": 56.852, "lon": -135.529 },
    "KBMX": { "name": "Birmingham", "state": "AL", "lat": 33.171, "lon": -86.769 },
    "KBIS": { "name": "Bismarck", "state": "ND", "lat": 46.770, "lon": -100.760 },
    "KFCX": { "name": "Blacksburg", "state": "VA", "lat": 37.207, "lon": -80.408 },
    "KCBX": { "name": "Boise", "state": "ID", "lat": 43.493, "lon": -116.236 },
    "KBOX": { "name": "Boston", "state": "MA", "lat": 41.955, "lon": -71.137 },
    "KBRO": { "name": "Brownsville", "state": "TX", "lat": 25.915, "lon": -97.418 },
    "KBUF": { "name": "Buffalo", "state": "NY", "lat": 42.948, "lon": -78.736 },
    "KCXX": { "name": "Burlington", "state": "VT", "lat": 44.511, "lon": -73.166 },
    "RKSG": { "name": "Camp Humphreys", "state": "KO", "lat": 36.963, "lon": 127.019 },
    "KFDX": { "name": "Cannon AFB", "state": "NM", "lat": 34.635, "lon": -103.629 },
    "KCBW": { "name": "Caribou", "state": "ME", "lat": 46.852, "lon": -68.017 },
    "KICX": { "name": "Cedar City", "state": "UT", "lat": 37.590, "lon": -112.862 },
    "KGRK": { "name": "Central Texas/Ft Hood", "state": "TX", "lat": 30.721, "lon": -97.382 },
    "KCLX": { "name": "Charleston", "state": "SC", "lat": 32.655, "lon": -81.042 },
    "KRLX": { "name": "Charleston", "state": "WV", "lat": 38.311, "lon": -81.723 },
    "KCYS": { "name": "Cheyenne", "state": "WY", "lat": 41.151, "lon": -104.806 },
    "KLOT": { "name": "Chicago", "state": "IL", "lat": 41.605, "lon": -88.085 },
    "KILN": { "name": "Cincinnati/Wilmington", "state": "OH", "lat": 39.420, "lon": -83.822 },
    "KCLE": { "name": "Cleveland", "state": "OH", "lat": 41.413, "lon": -81.861 },
    "KCAE": { "name": "Columbia", "state": "SC", "lat": 33.949, "lon": -81.119 },
    "KGWX": { "name": "Columbus AFB", "state": "MS", "lat": 33.899, "lon": -88.328 },
    "KCRP": { "name": "Corpus Christi", "state": "TX", "lat": 27.783, "lon": -97.511 },
    "KFTG": { "name": "Denver", "state": "CO", "lat": 39.786, "lon": -104.545 },
    "KDMX": { "name": "Des Moines", "state": "IA", "lat": 41.731, "lon": -93.723 },
    "KDDC": { "name": "Dodge City", "state": "KS", "lat": 37.760, "lon": -99.968 },
    "KDOX": { "name": "Dover AFB", "state": "DE", "lat": 38.825, "lon": -75.440 },
    "KDLH": { "name": "Duluth", "state": "MN", "lat": 46.836, "lon": -92.209 },
    "KEYX": { "name": "Edwards AFB", "state": "CA", "lat": 35.097, "lon": -117.567 },
    "KEPZ": { "name": "El Paso", "state": "TX", "lat": 31.873, "lon": -106.697 },
    "KESX": { "name": "Las Vegas", "state": "NV", "lat": 35.704, "lon": -114.891 },
    "KEWX": { "name": "San Antonio", "state": "TX", "lat": 29.703, "lon": -98.028 },
    "KYUX": { "name": "Yuma", "state": "AZ", "lat": 32.495, "lon": -114.656 },
    "KTLX": { "name": "Oklahoma City", "state": "OK", "lat": 35.333, "lon": -97.277 },
    "KEMX": { "name": "Tucson", "state": "AZ", "lat": 31.893, "lon": -110.633 },
    "KPOE": { "name": "Fort Polk", "state": "LA", "lat": 31.157, "lon": -92.976 },
    "KPDT": { "name": "Pendleton", "state": "OR", "lat": 45.690, "lon": -118.852 },
    "KRAX": { "name": "Raleigh", "state": "NC", "lat": 35.665, "lon": -78.488 },
    "KRTX": { "name": "Portland", "state": "OR", "lat": 45.715, "lon": -122.965 },
    "KLSX": { "name": "St. Louis", "state": "MO", "lat": 38.698, "lon": -90.682 },
    "KAMX": { "name": "Miami", "state": "FL", "lat": 25.611, "lon": -80.412 },
    "KFWS": { "name": "Dallas/Fort Worth", "state": "TX", "lat": 32.573, "lon": -97.303 },
    "KBYX": { "name": "Key West", "state": "FL", "lat": 24.596, "lon": -81.703 },
    "KLIX": { "name": "New Orleans", "state": "LA", "lat": 30.337, "lon": -89.825 },
    "KTBW": { "name": "Tampa Bay", "state": "FL", "lat": 27.705, "lon": -82.401 },
    "KLZK": { "name": "Little Rock", "state": "AR", "lat": 34.836, "lon": -92.261 },
    "KMOB": { "name": "Mobile", "state": "AL", "lat": 30.679, "lon": -88.239 },
    "KHGX": { "name": "Houston", "state": "TX", "lat": 29.471, "lon": -95.079 },
    "KVWX": { "name": "Evansville", "state": "IN", "lat": 38.261, "lon": -87.724 },
    "KMKX": { "name": "Milwaukee", "state": "WI", "lat": 42.968, "lon": -88.550 },
    "KPAH": { "name": "Paducah", "state": "KY", "lat": 37.068, "lon": -88.772 },
    "KIND": { "name": "Indianapolis", "state": "IN", "lat": 39.707, "lon": -86.280 },
    "KMPX": { "name": "Minneapolis", "state": "MN", "lat": 44.848, "lon": -93.565 },
    "KGRR": { "name": "Grand Rapids", "state": "MI", "lat": 42.893, "lon": -85.544 },
    "KAPX": { "name": "Gaylord", "state": "MI", "lat": 44.907, "lon": -84.719 },
    "KDTX": { "name": "Detroit", "state": "MI", "lat": 42.699, "lon": -83.471 },
    "KOKX": { "name": "New York City", "state": "NY", "lat": 40.865, "lon": -72.864 },
    "KAKQ": { "name": "Norfolk", "state": "VA", "lat": 36.983, "lon": -77.007 },
    "KDIX": { "name": "Philadelphia", "state": "NJ", "lat": 39.946, "lon": -74.411 },
    "KPBZ": { "name": "Pittsburgh", "state": "PA", "lat": 40.531, "lon": -80.217 },
    "KALY": { "name": "Albany", "state": "NY", "lat": 42.586, "lon": -74.064 },
    "KGYX": { "name": "Portland", "state": "ME", "lat": 43.891, "lon": -70.256 },
    "PAEC": { "name": "Nome", "state": "AK", "lat": 64.512, "lon": -165.445 },
    "PAIH": { "name": "Middleton Island", "state": "AK", "lat": 59.461, "lon": -146.305 },
    "PAKC": { "name": "King Salmon", "state": "AK", "lat": 58.676, "lon": -156.649 },
    "PAPD": { "name": "Fairbanks/Pedro Dome", "state": "AK", "lat": 65.035, "lon": -147.500 },
    "PHKM": { "name": "Kamuela/Kohala", "state": "HI", "lat": 20.079, "lon": -155.776 },
    "PHMO": { "name": "Molokai", "state": "HI", "lat": 21.133, "lon": -157.180 },
    "PHKI": { "name": "South Kauai", "state": "HI", "lat": 21.896, "lon": -159.603 },
    "PHWA": { "name": "South Shore", "state": "HI", "lat": 19.092, "lon": -155.568 },
    "RODN": { "name": "Kadena", "state": "Japan", "lat": 26.355, "lon": 127.767 },
    "RKJK": { "name": "Kunsan", "state": "Korea", "lat": 35.924, "lon": 126.617 },
    "TADW": { "name": "Andrews Air Force Base", "state": "MD", "lat": 38.695, "lon": -76.845 },
    "TATL": { "name": "Atlanta", "state": "GA", "lat": 33.647, "lon": -84.262 },
    "TBWI": { "name": "Baltimore/Washington International", "state": "MD", "lat": 39.09, "lon": -76.63 },
    "TBOS": { "name": "Boston", "state": "MA", "lat": 42.158, "lon": -70.933 },
    "TCLT": { "name": "Charlotte", "state": "NC", "lat": 35.337, "lon": -80.885 },
    "TMDW": { "name": "Chicago Midway", "state": "IL", "lat": 41.651, "lon": -87.73 },
    "TORD": { "name": "Chicago O'Hare", "state": "IL", "lat": 42.111, "lon": -83.515 },
    "TLVE": { "name": "Cleveland", "state": "OH", "lat": 41.29, "lon": -82.008 },
    "TCMH": { "name": "Columbus", "state": "OH", "lat": 40.006, "lon": -82.715 },
    "TCVG": { "name": "Covington", "state": "OH", "lat": 38.898, "lon": -84.58 },
    "TDAL": { "name": "Dallas Love Field", "state": "TX", "lat": 32.926, "lon": -96.968 },
    "TDFW": { "name": "Dallas/Fort Worth", "state": "TX", "lat": 32.065, "lon": -96.918 },
    "TDAY": { "name": "Dayton", "state": "OH", "lat": 40.022, "lon": -84.123 },
    "TDEN": { "name": "Denver", "state": "CO", "lat": 39.728, "lon": -104.526 },
    "TDTW": { "name": "Detroit", "state": "MI", "lat": 42.111, "lon": -83.515 },
    "TIAD": { "name": "Dulles", "state": "VA", "lat": 39.084, "lon": -77.529 },
    "TFLL": { "name": "Fort Lauderdale", "state": "FL", "lat": 26.143, "lon": -80.344 },
    "THOU": { "name": "Houston Hobby", "state": "TX", "lat": 29.516, "lon": -95.242 },
    "TIAH": { "name": "Houston International", "state": "TX", "lat": 30.065, "lon": -95.567 },
    "TIDS": { "name": "Indianapolis", "state": "IN", "lat": 39.637, "lon": -86.436 },
    "TMCI": { "name": "Kansas City", "state": "MO", "lat": 39.498, "lon": -94.742 },
    "TLAS": { "name": "Las Vegas", "state": "NV", "lat": 36.144, "lon": -115.007 },
    "TSDF": { "name": "Louisville", "state": "KY", "lat": 38.896, "lon": -85.741 },
    "TMEM": { "name": "Memphis", "state": "TN", "lat": 34.896, "lon": -89.993 },
    "TMIA": { "name": "Miami", "state": "FL", "lat": 25.758, "lon": -80.491 },
    "TMKE": { "name": "Milwaukee", "state": "WI", "lat": 42.819, "lon": -88.046 },
    "TMSP": { "name": "Minneapolis", "state": "MN", "lat": 44.871, "lon": -92.933 },
    "TBNA": { "name": "Nashville", "state": "TN", "lat": 36.165, "lon": -86.68 },
    "TMSY": { "name": "New Orleans", "state": "LA", "lat": 29.896, "lon": -90.258 },
    "TJFK": { "name": "New York City", "state": "NY", "lat": 40.589, "lon": -73.881 },
    "TEWR": { "name": "Newark", "state": "NJ", "lat": 40.589, "lon": -73.881 },
    "TOKC": { "name": "Oklahoma City", "state": "OK", "lat": 35.507, "lon": -97.437 },
    "TMCO": { "name": "Orlando International", "state": "FL", "lat": 28.344, "lon": -81.326 },
    "TPHL": { "name": "Philadelphia", "state": "PA", "lat": 39.869, "lon": -75.241 },
    "TPHX": { "name": "Phoenix", "state": "AZ", "lat": 33.434, "lon": -112.011 },
    "TPIT": { "name": "Pittsburgh", "state": "PA", "lat": 40.444, "lon": -80.189 },
    "TRDU": { "name": "Raleigh Durham", "state": "NC", "lat": 35.876, "lon": -78.787 },
    "TSLC": { "name": "Salt Lake City", "state": "UT", "lat": 40.777, "lon": -111.979 },
    "TSJU": { "name": "San Juan", "state": "PR", "lat": 18.439, "lon": -66.001 },
    "TSTL": { "name": "St Louis", "state": "MO", "lat": 38.748, "lon": -90.372 },
    "TTPA": { "name": "Tampa Bay", "state": "FL", "lat": 27.973, "lon": -82.533 },
    "TTUL": { "name": "Tulsa", "state": "OK", "lat": 36.153, "lon": -95.937 },
    "TDCA": { "name": "Washington National", "state": "MD", "lat": 38.852, "lon": -77.037 },
    "TPBI": { "name": "West Palm Beach", "state": "FL", "lat": 26.643, "lon": -80.05 },
    "TICH": { "name": "Wichita", "state": "KS", "lat": 37.507, "lon": -97.437 }  
}
  