{
    "KABR": {"name": "Aberdeen", "state": "SD", "lat": 45.4491, "lon": -98.4135},
    "KENX": {"name": "Albany", "state": "NY", "lat": 42.5862, "lon": -74.0643},
    "KABX": {"name": "Albuquerque", "state": "NM", "lat": 35.1497, "lon": -106.8235},
    "KAMA": {"name": "Amarillo", "state": "TX", "lat": 35.2333, "lon": -101.7092},
    "PAHG": {"name": "Anchorage/Kenai", "state": "AK", "lat": 60.7146, "lon": -151.3494},
    "PGUA": {"name": "Andersen AFB", "state": "Guam", "lat": 13.5893, "lon": 144.8561},
    "KFFC": {"name": "Atlanta", "state": "GA", "lat": 33.3637, "lon": -84.5657},
    "KBBX": {"name": "Beale AFB", "state": "CA", "lat": 39.4964, "lon": -121.6319},
    "PABC": {"name": "Bethel", "state": "AK", "lat": 60.7933, "lon": -161.8747},
    "KBLX": {"name": "Billings", "state": "MT", "lat": 45.8533, "lon": -108.6061},
    "KBGM": {"name": "Binghamton", "state": "NY", "lat": 42.1991, "lon": -75.9856},
    "PACG": {"name": "Biorka Island/Sitka", "state": "AK", "lat": 56.8522, "lon": -135.5306},
    "KBMX": {"name": "Birmingham", "state": "AL", "lat": 33.1719, "lon": -86.7697},
    "KBIS": {"name": "Bismarck", "state": "ND", "lat": 46.7708, "lon": -100.7606},
    "KFCX": {"name": "Blacksburg", "state": "VA", "lat": 37.2025, "lon": -80.4072},
    "KCBX": {"name": "Boise", "state": "ID", "lat": 43.4936, "lon": -116.2361},
    "KBOX": {"name": "Boston", "state": "MA", "lat": 41.9558, "lon": -71.1375},
    "KBRO": {"name": "Brownsville", "state": "TX", "lat": 25.9153, "lon": -97.4186},
    "KBUF": {"name": "Buffalo", "state": "NY", "lat": 42.9483, "lon": -78.7369},
    "KCXX": {"name": "Burlington", "state": "VT", "lat": 44.5114, "lon": -73.1669},
    "RKSG": {"name": "Camp Humphreys", "state": "Korea", "lat": 36.9633, "lon": 127.0206},
    "KFDX": {"name": "Cannon AFB", "state": "NM", "lat": 34.6358, "lon": -103.6294},
    "KCBW": {"name": "Caribou", "state": "ME", "lat": 46.0431, "lon": -67.8061},
    "KICX": {"name": "Cedar City", "state": "UT", "lat": 37.5906, "lon": -112.8625},
    "KGRK": {"name": "Central Texas/Ft Hood", "state": "TX", "lat": 30.7211, "lon": -97.3825},
    "KCLX": {"name": "Charleston", "state": "SC", "lat": 32.6553, "lon": -81.0425},
    "KRLX": {"name": "Charleston", "state": "WV", "lat": 38.3119, "lon": -81.7236},
    "KCYS": {"name": "Cheyenne", "state": "WY", "lat": 41.1519, "lon": -104.8061},
    "KLOT": {"name": "Chicago", "state": "IL", "lat": 41.6047, "lon": -88.0847},
    "KILN": {"name": "Cincinnati/Wilmington", "state": "OH", "lat": 39.4203, "lon": -83.8225},
    "KCLE": {"name": "Cleveland", "state": "OH", "lat": 41.4133, "lon": -81.8597},
    "KCAE": {"name": "Columbia", "state": "SC", "lat": 33.9483, "lon": -81.1186},
    "KGWX": {"name": "Columbus AFB", "state": "MS", "lat": 33.9000, "lon": -88.3286},
    "KCRP": {"name": "Corpus Christi", "state": "TX", "lat": 27.7833, "lon": -97.5106},
    "KFTG": {"name": "Denver", "state": "CO", "lat": 39.7861, "lon": -104.5450},
    "KDMX": {"name": "Des Moines", "state": "IA", "lat": 41.7311, "lon": -93.7236},
    "KDTX": {"name": "Detroit", "state": "MI", "lat": 42.7000, "lon": -83.4714},
    "KDDC": {"name": "Dodge City", "state": "KS", "lat": 37.7600, "lon": -99.9686},
    "KDOX": {"name": "Dover AFB", "state": "DE", "lat": 38.8250, "lon": -75.4400},
    "KDLH": {"name": "Duluth", "state": "MN", "lat": 46.8361, "lon": -92.2097},
    "KDYX": {"name": "Dyess AFB", "state": "TX", "lat": 32.5400, "lon": -99.2544},
    "KEYX": {"name": "Edwards AFB", "state": "CA", "lat": 35.0950, "lon": -117.5600},
    "KEPZ": {"name": "El Paso", "state": "TX", "lat": 31.8733, "lon": -106.6972},
    "KLRX": {"name": "Elko", "state": "NV", "lat": 40.7400, "lon": -116.8025},
    "KBHX": {"name": "Eureka", "state": "CA", "lat": 40.4983, "lon": -124.2911},
    "KVWX": {"name": "Evansville", "state": "IN", "lat": 38.2633, "lon": -87.7247},
    "PAPD": {"name": "Fairbanks/Pedro Dome", "state": "AK", "lat": 65.0350, "lon": -147.5000},
    "KFSX": {"name": "Flagstaff", "state": "AZ", "lat": 34.5744, "lon": -111.1983},
    "KSRX": {"name": "Fort Smith", "state": "AR", "lat": 35.2900, "lon": -94.3611},
    "KFDR": {"name": "Frederick/Altus AFB", "state": "OK", "lat": 34.3622, "lon": -98.9761},
    "KHPX": {"name": "Ft Campbell", "state": "KY", "lat": 36.7361, "lon": -87.2811},
    "KPOE": {"name": "Ft Polk", "state": "LA", "lat": 31.1550, "lon": -92.9750},
    "KEOX": {"name": "Ft Rucker", "state": "AL", "lat": 31.4600, "lon": -85.4294},
    "KFWS": {"name": "Ft Worth", "state": "TX", "lat": 32.5728, "lon": -97.3033},
    "KAPX": {"name": "Gaylord", "state": "MI", "lat": 44.9072, "lon": -84.7194},
    "KGGW": {"name": "Glasgow", "state": "MT", "lat": 48.2061, "lon": -106.6250},
    "KGLD": {"name": "Goodland", "state": "KS", "lat": 39.3667, "lon": -101.7000},
    "KMVX": {"name": "Grand Forks", "state": "ND", "lat": 47.6283, "lon": -97.3250},
    "KGJX": {"name": "Grand Junction", "state": "CO", "lat": 39.0622, "lon": -108.2133},
    "KGRR": {"name": "Grand Rapids", "state": "MI", "lat": 42.8933, "lon": -85.5447},
    "KTFX": {"name": "Great Falls", "state": "MT", "lat": 47.4597, "lon": -111.3856},
    "KGRB": {"name": "Green Bay", "state": "WI", "lat": 44.4983, "lon": -88.1111},
    "KGSP": {"name": "Greer", "state": "SC", "lat": 34.8833, "lon": -82.2200},
    "KUEX": {"name": "Hastings", "state": "NE", "lat": 40.3200, "lon": -98.4411},
    "KHDX": {"name": "Holloman AFB", "state": "NM", "lat": 32.8500, "lon": -106.0983},
    "KHGX": {"name": "Houston", "state": "TX", "lat": 29.4711, "lon": -95.0783},
    "KHTX": {"name": "Huntsville/Hytop", "state": "AL", "lat": 34.9300, "lon": -86.0833},
    "KIND": {"name": "Indianapolis", "state": "IN", "lat": 39.7072, "lon": -86.2800},
    "KJKL": {"name": "Jackson", "state": "KY", "lat": 37.5900, "lon": -83.3144},
    "KDGX": {"name": "Jackson", "state": "MS", "lat": 32.2797, "lon": -89.9847},
    "KJAX": {"name": "Jacksonville", "state": "FL", "lat": 30.4847, "lon": -81.7011},
    "RODN": {"name": "Kadena", "state": "Japan", "lat": 26.3517, "lon": 127.7694},
    "PHKM": {"name": "Kamuela/Kohala", "state": "HI", "lat": 20.1250, "lon": -155.7767},
    "KEAX": {"name": "Kansas City", "state": "MO", "lat": 38.8100, "lon": -94.2644},
    "KBYX": {"name": "Key West", "state": "FL", "lat": 24.5961, "lon": -81.7033},
    "PAKC": {"name": "King Salmon", "state": "AK", "lat": 58.6767, "lon": -156.6494},
    "KMRX": {"name": "Knoxville/Morristown", "state": "TN", "lat": 36.1683, "lon": -83.4011},
    "RKJK": {"name": "Kunsan", "state": "Korea", "lat": 35.9244, "lon": 126.6172},
    "KARX": {"name": "La Crosse", "state": "WI", "lat": 43.8222, "lon": -91.1917},
    "KLCH": {"name": "Lake Charles", "state": "LA", "lat": 30.1250, "lon": -93.2153},
    "KLGX": {"name": "Langley Hill", "state": "WA", "lat": 47.1181, "lon": -124.1069},
    "KESX": {"name": "Las Vegas", "state": "NV", "lat": 36.6219, "lon": -115.0436},
    "KDFX": {"name": "Laughlin AFB", "state": "TX", "lat": 29.2700, "lon": -100.2800},
    "KILX": {"name": "Lincoln", "state": "IL", "lat": 40.1500, "lon": -89.3389},
    "KLZK": {"name": "Little Rock", "state": "AR", "lat": 34.8361, "lon": -92.2619},
    "KVTX": {"name": "Los Angeles", "state": "CA", "lat": 34.4122, "lon": -119.1781},
    "KLVX": {"name": "Louisville", "state": "KY", "lat": 37.9750, "lon": -85.9431},
    "KLBB": {"name": "Lubbock", "state": "TX", "lat": 33.6542, "lon": -101.8147},
    "KMQT": {"name": "Marquette", "state": "MI", "lat": 46.5311, "lon": -87.5483},
    "KMXX": {"name": "Maxwell AFB", "state": "AL", "lat": 32.5364, "lon": -85.7897},
    "KMAX": {"name": "Medford", "state": "OR", "lat": 42.0814, "lon": -122.7164},
    "KMLB": {"name": "Melbourne", "state": "FL", "lat": 28.1131, "lon": -80.6544},
    "KNQA": {"name": "Memphis", "state": "TN", "lat": 35.3447, "lon": -89.8731},
    "KAMX": {"name": "Miami", "state": "FL", "lat": 25.6111, "lon": -80.4131},
    "PAIH": {"name": "Middleton Island", "state": "AK", "lat": 59.4611, "lon": -146.3000},
    "KMAF": {"name": "Midland/Odessa", "state": "TX", "lat": 31.9433, "lon": -102.1886},
    "KMKX": {"name": "Milwaukee", "state": "WI", "lat": 42.9678, "lon": -88.5506},
    "KMPX": {"name": "Minneapolis", "state": "MN", "lat": 44.8483, "lon": -93.5653},
    "KMBX": {"name": "Minot AFB", "state": "ND", "lat": 48.3925, "lon": -101.3219},
    "KMSX": {"name": "Missoula", "state": "MT", "lat": 47.0419, "lon": -113.9861},
    "KMOB": {"name": "Mobile", "state": "AL", "lat": 30.6797, "lon": -88.2397},
    "PHMO": {"name": "Molokai", "state": "HI", "lat": 21.1333, "lon": -157.1000},
    "KTYX": {"name": "Montague/Ft Drum", "state": "NY", "lat": 43.7550, "lon": -75.6800},
    "KVAX": {"name": "Moody AFB", "state": "GA", "lat": 30.9672, "lon": -83.1936},
    "KMHX": {"name": "Morehead City", "state": "NC", "lat": 34.7750, "lon": -76.8764},
    "KOHX": {"name": "Nashville", "state": "TN", "lat": 36.2472, "lon": -86.5625},
    "KLIX": {"name": "New Orleans", "state": "LA", "lat": 30.3361, "lon": -89.8256},
    "KOKX": {"name": "New York City/Upton", "state": "NY", "lat": 40.8650, "lon": -72.8644},
    "PAEC": {"name": "Nome", "state": "AK", "lat": 64.5111, "lon": -165.2956},
    "KLNX": {"name": "North Platte", "state": "NE", "lat": 41.9575, "lon": -100.5750},
    "KIWX": {"name": "Northern Indiana/North Webster", "state": "IN", "lat": 41.3592, "lon": -85.7000},
    "KEVX": {"name": "Northwest Florida/Eglin AFB", "state": "FL", "lat": 30.5644, "lon": -86.2136},
    "KTLX": {"name": "Oklahoma City", "state": "OK", "lat": 35.3331, "lon": -97.2775},
    "KOAX": {"name": "Omaha", "state": "NE", "lat": 41.3200, "lon": -96.3669},
    "KPAH": {"name": "Paducah", "state": "KY", "lat": 37.0683, "lon": -88.7725},
    "KPDT": {"name": "Pendleton", "state": "OR", "lat": 45.6900, "lon": -118.8525},
    "KDIX": {"name": "Philadelphia", "state": "PA", "lat": 39.9469, "lon": -74.4111},
    "KIWA": {"name": "Phoenix", "state": "AZ", "lat": 33.2897, "lon": -111.6692},
    "KPBZ": {"name": "Pittsburgh", "state": "PA", "lat": 40.5311, "lon": -80.2186},
    "KSFX": {"name": "Pocatello", "state": "ID", "lat": 43.0433, "lon": -112.6856},
    "KGYX": {"name": "Portland", "state": "ME", "lat": 43.8911, "lon": -70.2569},
    "KRTX": {"name": "Portland", "state": "OR", "lat": 45.7156, "lon": -122.9642},
    "KPUX": {"name": "Pueblo", "state": "CO", "lat": 38.4597, "lon": -104.1814},
    "KDVN": {"name": "Quad Cities/Davenport", "state": "IA", "lat": 41.6111, "lon": -90.5800},
    "KRAX": {"name": "Raleigh/Durham", "state": "NC", "lat": 35.6656, "lon": -78.4911},
    "KUDX": {"name": "Rapid City", "state": "SD", "lat": 44.1250, "lon": -102.8292},
    "KRGX": {"name": "Reno", "state": "NV", "lat": 39.7547, "lon": -119.4600},
    "KRIW": {"name": "Riverton", "state": "WY", "lat": 43.0669, "lon": -108.4778},
    "KJGX": {"name": "Robins AFB", "state": "GA", "lat": 32.6750, "lon": -83.3511},
    "KDAX": {"name": "Sacramento", "state": "CA", "lat": 38.5011, "lon": -121.6783},
    "KMTX": {"name": "Salt Lake City", "state": "UT", "lat": 41.2622, "lon": -112.4461},
    "KSJT": {"name": "San Angelo", "state": "TX", "lat": 31.3711, "lon": -100.4925},
    "KEWX": {"name": "San Antonio", "state": "TX", "lat": 29.7033, "lon": -98.0283},
    "KNKX": {"name": "San Diego", "state": "CA", "lat": 32.9186, "lon": -117.0417},
    "KMUX": {"name": "San Francisco", "state": "CA", "lat": 37.1550, "lon": -121.8975},
    "KHNX": {"name": "San Joaquin Valley", "state": "CA", "lat": 36.3147, "lon": -119.6311},
    "TJUA": {"name": "San Juan", "state": "Puerto Rico", "lat": 18.1158, "lon": -66.0783},
    "KSOX": {"name": "Santa Ana Mountains", "state": "CA", "lat": 33.8175, "lon": -117.6350},
    "KATX": {"name": "Seattle", "state": "WA", "lat": 48.1944, "lon": -122.4944},
    "KSHV": {"name": "Shreveport", "state": "LA", "lat": 32.4500, "lon": -93.8417},
    "KFSD": {"name": "Sioux Falls", "state": "SD", "lat": 43.5875, "lon": -96.7283},
    "PHKI": {"name": "South Kauai", "state": "HI", "lat": 21.8969, "lon": -159.6033},
    "PHWA": {"name": "South Shore", "state": "HI", "lat": 19.0925, "lon": -155.5683},
    "KOTX": {"name": "Spokane", "state": "WA", "lat": 47.6800, "lon": -117.6250},
    "KSGF": {"name": "Springfield", "state": "MO", "lat": 37.2350, "lon": -93.4000},
    "KLSX": {"name": "St Louis", "state": "MO", "lat": 38.7000, "lon": -90.6833},
    "KCCX": {"name": "State College", "state": "PA", "lat": 40.9233, "lon": -78.0033},
    "KLWX": {"name": "Sterling", "state": "VA", "lat": 38.9761, "lon": -77.4875},
    "KTLH": {"name": "Tallahassee", "state": "FL", "lat": 30.3983, "lon": -84.3283},
    "KTBW": {"name": "Tampa Bay", "state": "FL", "lat": 27.7050, "lon": -82.4017},
    "KTWX": {"name": "Topeka", "state": "KS", "lat": 38.9961, "lon": -96.2325},
    "KEMX": {"name": "Tucson", "state": "AZ", "lat": 31.8933, "lon": -110.6300},
    "KINX": {"name": "Tulsa", "state": "OK", "lat": 36.1750, "lon": -95.5647},
    "KVNX": {"name": "Vance AFB", "state": "OK", "lat": 36.7400, "lon": -98.1275},
    "KVBX": {"name": "Vandenberg AFB", "state": "CA", "lat": 34.8383, "lon": -120.3983},
    "KAKQ": {"name": "Wakefield", "state": "VA", "lat": 36.9833, "lon": -77.0000},
    "KICT": {"name": "Wichita", "state": "KS", "lat": 37.6547, "lon": -97.4433},
    "KLTX": {"name": "Wilmington", "state": "NC", "lat": 33.9894, "lon": -78.4292},
    "KYUX": {"name": "Yuma", "state": "AZ", "lat": 32.4950, "lon": -114.6550},
    "TADW": {"name": "Andrews Air Force Base", "state": "MD", "lat": 38.8108, "lon": -76.8669},
    "TATL": {"name": "Atlanta", "state": "GA", "lat": 33.6367, "lon": -84.4281},
    "TBWI": {"name": "Baltimore/Washington", "state": "MD", "lat": 39.1754, "lon": -76.6683},
    "TBOS": {"name": "Boston", "state": "MA", "lat": 42.3656, "lon": -71.0096},
    "TCLT": {"name": "Charlotte", "state": "NC", "lat": 35.214, "lon": -80.9431},
    "TMDW": {"name": "Chicago Midway", "state": "IL", "lat": 41.7868, "lon": -87.7522},
    "TORD": {"name": "Chicago O'Hare", "state": "IL", "lat": 41.9786, "lon": -87.9048},
    "TLVE": {"name": "Cleveland", "state": "OH", "lat": 41.4117, "lon": -81.8498},
    "TCMH": {"name": "Columbus", "state": "OH", "lat": 39.998, "lon": -82.8919},
    "TCVG": {"name": "Covington", "state": "KY", "lat": 39.0489, "lon": -84.6678},
    "TDAL": {"name": "Dallas Love Field", "state": "TX", "lat": 32.8471, "lon": -96.8518},
    "TDFW": {"name": "Dallas/Fort Worth", "state": "TX", "lat": 32.8968, "lon": -97.038},
    "TDAY": {"name": "Dayton", "state": "OH", "lat": 39.9024, "lon": -84.2194},
    "TDEN": {"name": "Denver", "state": "CO", "lat": 39.8617, "lon": -104.6731},
    "TDTW": {"name": "Detroit", "state": "MI", "lat": 42.2125, "lon": -83.3533},
    "TIAD": {"name": "Dulles", "state": "VA", "lat": 38.9444, "lon": -77.4558},
    "TFLL": {"name": "Fort Lauderdale", "state": "FL", "lat": 26.0726, "lon": -80.1527},
    "THOU": {"name": "Houston Hobby", "state": "TX", "lat": 29.6454, "lon": -95.2789},
    "TIAH": {"name": "Houston International", "state": "TX", "lat": 29.9844, "lon": -95.3414},
    "TIDS": {"name": "Indianapolis", "state": "IN", "lat": 39.7173, "lon": -86.2944},
    "TMCI": {"name": "Kansas City", "state": "MO", "lat": 39.2976, "lon": -94.7139},
    "TLAS": {"name": "Las Vegas", "state": "NV", "lat": 36.0801, "lon": -115.1522},
    "TSDF": {"name": "Louisville", "state": "KY", "lat": 38.1741, "lon": -85.736},
    "TMEM": {"name": "Memphis", "state": "TN", "lat": 35.0424, "lon": -89.9767},
    "TMIA": {"name": "Miami", "state": "FL", "lat": 25.7959, "lon": -80.287},
    "TMKE": {"name": "Milwaukee", "state": "WI", "lat": 42.9472, "lon": -87.8966},
    "TMSP": {"name": "Minneapolis", "state": "MN", "lat": 44.8833, "lon": -93.2289},
    "TBNA": {"name": "Nashville", "state": "TN", "lat": 36.1245, "lon": -86.6782},
    "TMSY": {"name": "New Orleans", "state": "LA", "lat": 29.9933, "lon": -90.258},
    "TJFK": {"name": "New York City", "state": "NY", "lat": 40.6398, "lon": -73.7789},
    "TEWR": {"name": "Newark", "state": "NJ", "lat": 40.6925, "lon": -74.1687},
    "TOKC": {"name": "Oklahoma City", "state": "OK", "lat": 35.3931, "lon": -97.6008},
    "TMCO": {"name": "Orlando International", "state": "FL", "lat": 28.4294, "lon": -81.3089},
    "TPHL": {"name": "Philadelphia", "state": "PA", "lat": 39.8719, "lon": -75.2411},
    "TPHX": {"name": "Phoenix", "state": "AZ", "lat": 33.4342, "lon": -112.0111},
    "TPIT": {"name": "Pittsburgh", "state": "PA", "lat": 40.4914, "lon": -80.2328},
    "TRDU": {"name": "Raleigh Durham", "state": "NC", "lat": 35.8776, "lon": -78.7875},
    "TSLC": {"name": "Salt Lake City", "state": "UT", "lat": 40.7884, "lon": -111.9778},
    "TSJU": {"name": "San Juan", "state": "PR", "lat": 18.4394, "lon": -66.0018},
    "TSTL": {"name": "St Louis", "state": "MO", "lat": 38.7487, "lon": -90.370},
    "TTPA": {"name": "Tampa Bay", "state": "FL", "lat": 27.9755, "lon": -82.5332},
    "TTUL": {"name": "Tulsa", "state": "OK", "lat": 36.1983, "lon": -95.8881},
    "TDCA": {"name": "Washington National", "state": "MD", "lat": 38.8522, "lon": -77.0377},
    "TPBI": {"name": "West Palm Beach", "state": "FL", "lat": 26.6832, "lon": -80.0956},
    "TICH": {"name": "Wichita", "state": "KS", "lat": 37.6499, "lon": -97.4331}
  }  